[{"ICAO":"YBAF","Latitude":-27.5702991486,"Longitude":153.007995605,"Name":"Brisbane Archerfield Airport"},{"ICAO":"YBAM","Latitude":-10.9508,"Longitude":142.459,"Name":"Northern Peninsula Airport"},{"ICAO":"YBAS","Latitude":-23.806699752807617,"Longitude":133.90199279785156,"Name":"Alice Springs Airport"},{"ICAO":"YBBN","Latitude":-27.384199142456055,"Longitude":153.11700439453125,"Name":"Brisbane International Airport"},{"ICAO":"YBCG","Latitude":-28.1644001007,"Longitude":153.505004883,"Name":"Gold Coast Airport"},{"ICAO":"YBCS","Latitude":-16.885799408,"Longitude":145.755004883,"Name":"Cairns International Airport"},{"ICAO":"YBCV","Latitude":-26.4132995605,"Longitude":146.261993408,"Name":"Charleville Airport"},{"ICAO":"YBMA","Latitude":-20.663900375399997,"Longitude":139.488998413,"Name":"Mount Isa Airport"},{"ICAO":"YBMC","Latitude":-26.603300094599998,"Longitude":153.091003418,"Name":"Sunshine Coast Airport"},{"ICAO":"YBMK","Latitude":-21.171699523900003,"Longitude":149.179992676,"Name":"Mackay Airport"},{"ICAO":"YBPN","Latitude":-20.4950008392,"Longitude":148.552001953,"Name":"Proserpine Whitsunday Coast Airport"},{"ICAO":"YBRK","Latitude":-23.3819007874,"Longitude":150.475006104,"Name":"Rockhampton Airport"},{"ICAO":"YBTL","Latitude":-19.252500534057617,"Longitude":146.76499938964844,"Name":"Townsville Airport"},{"ICAO":"YBWP","Latitude":-12.6786003113,"Longitude":141.925003052,"Name":"Weipa Airport"},{"ICAO":"YMAV","Latitude":-38.0393981934,"Longitude":144.468994141,"Name":"Avalon Airport"},{"ICAO":"YMAY","Latitude":-36.06779861450195,"Longitude":146.95799255371094,"Name":"Albury Airport"},{"ICAO":"YMEN","Latitude":-37.72809982299805,"Longitude":144.90199279785156,"Name":"Melbourne Essendon Airport"},{"ICAO":"YMES","Latitude":-38.098899841299996,"Longitude":147.149002075,"Name":"RAAF Base East Sale"},{"ICAO":"YMHB","Latitude":-42.836101532,"Longitude":147.509994507,"Name":"Hobart International Airport"},{"ICAO":"YMLT","Latitude":-41.54529953,"Longitude":147.214004517,"Name":"Launceston Airport"},{"ICAO":"YMMB","Latitude":-37.975799560546875,"Longitude":145.1020050048828,"Name":"Melbourne Moorabbin Airport"},{"ICAO":"YMML","Latitude":-37.673301696777344,"Longitude":144.84300231933594,"Name":"Melbourne International Airport"},{"ICAO":"YMPC","Latitude":-37.93220138549805,"Longitude":144.7530059814453,"Name":"RAAF Williams, Point Cook Base"},{"ICAO":"YPAD","Latitude":-34.94499969482422,"Longitude":138.531005859375,"Name":"Adelaide International Airport"},{"ICAO":"YPED","Latitude":-34.70249938964844,"Longitude":138.62100219726562,"Name":"RAAF Base Edinburgh"},{"ICAO":"YPJT","Latitude":-32.09749984741211,"Longitude":115.88099670410156,"Name":"Perth Jandakot Airport"},{"ICAO":"YPKA","Latitude":-20.712200164799995,"Longitude":116.773002625,"Name":"Karratha Airport"},{"ICAO":"YPKG","Latitude":-30.789400100699996,"Longitude":121.461997986,"Name":"Kalgoorlie Boulder Airport"},{"ICAO":"YPKU","Latitude":-15.7781000137,"Longitude":128.707992554,"Name":"Kununurra Airport"},{"ICAO":"YPLM","Latitude":-22.235599517799997,"Longitude":114.088996887,"Name":"Learmonth Airport"},{"ICAO":"YPPD","Latitude":-20.3777999878,"Longitude":118.625999451,"Name":"Port Hedland International Airport"},{"ICAO":"YPPF","Latitude":-34.793300628699996,"Longitude":138.632995605,"Name":"Adelaide Parafield Airport"},{"ICAO":"YPPH","Latitude":-31.94029998779297,"Longitude":115.96700286865234,"Name":"Perth International Airport"},{"ICAO":"YPWR","Latitude":-31.14419937133789,"Longitude":136.81700134277344,"Name":"Woomera Airfield"},{"ICAO":"YSBK","Latitude":-33.924400329589844,"Longitude":150.98800659179688,"Name":"Sydney Bankstown Airport"},{"ICAO":"YSCB","Latitude":-35.30690002441406,"Longitude":149.19500732421875,"Name":"Canberra International Airport"},{"ICAO":"YSCH","Latitude":-30.3206005096,"Longitude":153.115997314,"Name":"Coffs Harbour Airport"},{"ICAO":"YSCN","Latitude":-34.04029846191406,"Longitude":150.68699645996094,"Name":"Camden Airport"},{"ICAO":"YSDU","Latitude":-32.2167015076,"Longitude":148.574996948,"Name":"Dubbo City Regional Airport"},{"ICAO":"YSRI","Latitude":-33.600601,"Longitude":150.781006,"Name":"RAAF Base Richmond"},{"ICAO":"YSSY","Latitude":-33.94609832763672,"Longitude":151.177001953125,"Name":"Sydney Kingsford Smith International Airport"},{"ICAO":"YSTW","Latitude":-31.0839004517,"Longitude":150.847000122,"Name":"Tamworth Airport"},{"ICAO":"YSWG","Latitude":-35.1652984619,"Longitude":147.466003418,"Name":"Wagga Wagga City Airport"},{"ICAO":"YEML","Latitude":-23.5674991608,"Longitude":148.179000854,"Name":"Emerald Airport"},{"ICAO":"YPDN","Latitude":-12.41469955444336,"Longitude":130.8769989013672,"Name":"Darwin International Airport"},{"ICAO":"YAYE","Latitude":-25.1861,"Longitude":130.975998,"Name":"Ayers Rock Connellan Airport"},{"ICAO":"YKSC","Latitude":-35.71390151977539,"Longitude":137.52099609375,"Name":"Kingscote Airport"},{"ICAO":"YHBA","Latitude":-25.3188991547,"Longitude":152.880004883,"Name":"Hervey Bay Airport"},{"ICAO":"YARM","Latitude":-30.528099060099997,"Longitude":151.617004395,"Name":"Armidale Airport"},{"ICAO":"YBCK","Latitude":-24.427799224900003,"Longitude":145.429000854,"Name":"Blackall Airport"},{"ICAO":"YBUD","Latitude":-24.903900146499996,"Longitude":152.319000244,"Name":"Bundaberg Airport"},{"ICAO":"YHYN","Latitude":-20.0599,"Longitude":148.8834,"Name":"Hayman Island Heliport"},{"ICAO":"YTNG","Latitude":-24.493900299072266,"Longitude":150.5760040283203,"Name":"Thangool Airport"},{"ICAO":"YBNA","Latitude":-28.8339004517,"Longitude":153.56199646,"Name":"Ballina Byron Gateway Airport"},{"ICAO":"YBRM","Latitude":-17.944700241088867,"Longitude":122.23200225830078,"Name":"Broome International Airport"},{"ICAO":"YWLM","Latitude":-32.79499816894531,"Longitude":151.83399963378906,"Name":"Newcastle Airport"},{"ICAO":"YABA","Latitude":-34.94329833984375,"Longitude":117.80899810791016,"Name":"Albany Airport"},{"ICAO":"YARG","Latitude":-16.6369,"Longitude":128.451004,"Name":"Argyle Airport"},{"ICAO":"YAUR","Latitude":-13.354067,"Longitude":141.72065,"Name":"Aurukun Airport"},{"ICAO":"YBAR","Latitude":-23.5652999878,"Longitude":145.307006836,"Name":"Barcaldine Airport"},{"ICAO":"YBAU","Latitude":-10.149999618499999,"Longitude":142.1734,"Name":"Badu Island Airport"},{"ICAO":"YBDV","Latitude":-25.897499084472656,"Longitude":139.34800720214844,"Name":"Birdsville Airport"},{"ICAO":"YBHI","Latitude":-32.0013999939,"Longitude":141.472000122,"Name":"Broken Hill Airport"},{"ICAO":"YBHM","Latitude":-20.3581008911,"Longitude":148.95199585,"Name":"Hamilton Island Airport"},{"ICAO":"YBIE","Latitude":-24.346099853515625,"Longitude":139.4600067138672,"Name":"Bedourie Airport"},{"ICAO":"YBKE","Latitude":-30.039199829101562,"Longitude":145.95199584960938,"Name":"Bourke Airport"},{"ICAO":"YBKT","Latitude":-17.748600006103516,"Longitude":139.53399658203125,"Name":"Burketown Airport"},{"ICAO":"YBOI","Latitude":-9.23278045654,"Longitude":142.218002319,"Name":"Boigu Airport"},{"ICAO":"YBOK","Latitude":-27.411399841308594,"Longitude":151.73500061035156,"Name":"Oakey Airport"},{"ICAO":"YBOU","Latitude":-22.913299560546875,"Longitude":139.89999389648438,"Name":"Boulia Airport"},{"ICAO":"YBTH","Latitude":-33.4094009399,"Longitude":149.651992798,"Name":"Bathurst Airport"},{"ICAO":"YBTR","Latitude":-23.603099822998047,"Longitude":148.8070068359375,"Name":"Blackwater Airport"},{"ICAO":"YCAR","Latitude":-24.880211,"Longitude":113.67174,"Name":"Carnarvon Airport"},{"ICAO":"YCBA","Latitude":-31.538299560546875,"Longitude":145.79400634765625,"Name":"Cobar Airport"},{"ICAO":"YCBP","Latitude":-29.040000915527344,"Longitude":134.7209930419922,"Name":"Coober Pedy Airport"},{"ICAO":"YCCT","Latitude":-10.050000190734863,"Longitude":143.07000732421875,"Name":"Coconut Island Airport"},{"ICAO":"YCCY","Latitude":-20.668600082399998,"Longitude":140.503997803,"Name":"Cloncurry Airport"},{"ICAO":"YCDU","Latitude":-32.13059997558594,"Longitude":133.7100067138672,"Name":"Ceduna Airport"},{"ICAO":"YCKN","Latitude":-15.444700241088867,"Longitude":145.1840057373047,"Name":"Cooktown Airport"},{"ICAO":"YCMU","Latitude":-28.030000686645508,"Longitude":145.6219940185547,"Name":"Cunnamulla Airport"},{"ICAO":"YCNM","Latitude":-30.983299255371094,"Longitude":148.37600708007812,"Name":"Coonamble Airport"},{"ICAO":"YCOE","Latitude":-13.761133,"Longitude":143.113311,"Name":"Coen Airport"},{"ICAO":"YCOM","Latitude":-36.3005981445,"Longitude":148.973999023,"Name":"Cooma Snowy Mountains Airport"},{"ICAO":"YDMG","Latitude":-17.94029998779297,"Longitude":138.82200622558594,"Name":"Doomadgee Airport"},{"ICAO":"YDNI","Latitude":-9.583330154418945,"Longitude":143.76699829101562,"Name":"Darnley Island Airport"},{"ICAO":"YDPO","Latitude":-41.1697006226,"Longitude":146.429992676,"Name":"Devonport Airport"},{"ICAO":"YELD","Latitude":-12.019399642899998,"Longitude":135.570999146,"Name":"Elcho Island Airport"},{"ICAO":"YESP","Latitude":-33.684399,"Longitude":121.822998,"Name":"Esperance Airport"},{"ICAO":"YFLI","Latitude":-40.0917015076,"Longitude":147.992996216,"Name":"Flinders Island Airport"},{"ICAO":"YGEL","Latitude":-28.796101,"Longitude":114.707001,"Name":"Geraldton Airport"},{"ICAO":"YGLA","Latitude":-23.869699,"Longitude":151.223007,"Name":"Gladstone Airport"},{"ICAO":"YGTE","Latitude":-13.975000381500001,"Longitude":136.460006714,"Name":"Groote Eylandt Airport"},{"ICAO":"YGTH","Latitude":-34.2508010864,"Longitude":146.067001343,"Name":"Griffith Airport"},{"ICAO":"YHID","Latitude":-10.586400032,"Longitude":142.289993286,"Name":"Horn Island Airport"},{"ICAO":"YHOO","Latitude":-18.3367004395,"Longitude":130.638000488,"Name":"Hooker Creek Airport"},{"ICAO":"YHOT","Latitude":-37.0475006104,"Longitude":147.333999634,"Name":"Mount Hotham Airport"},{"ICAO":"YHUG","Latitude":-20.815000534057617,"Longitude":144.22500610351562,"Name":"Hughenden Airport"},{"ICAO":"YJLC","Latitude":-20.66830062866211,"Longitude":141.72300720214844,"Name":"Julia Creek Airport"},{"ICAO":"YKBR","Latitude":-27.692813,"Longitude":114.259169,"Name":"Kalbarri Airport"},{"ICAO":"YKII","Latitude":-39.877498626708984,"Longitude":143.8780059814453,"Name":"King Island Airport"},{"ICAO":"YKKG","Latitude":-17.431900024414062,"Longitude":130.80799865722656,"Name":"Kalkgurung Airport"},{"ICAO":"YKMB","Latitude":-17.45669937133789,"Longitude":140.8300018310547,"Name":"Karumba Airport"},{"ICAO":"YKOW","Latitude":-15.485600471496582,"Longitude":141.75100708007812,"Name":"Kowanyama Airport"},{"ICAO":"YKUB","Latitude":-10.225000381500001,"Longitude":142.218002319,"Name":"Kubin Airport"},{"ICAO":"YLEO","Latitude":-28.87809944152832,"Longitude":121.31500244140625,"Name":"Leonora Airport"},{"ICAO":"YLEV","Latitude":-12.498900413513184,"Longitude":135.80599975585938,"Name":"Lake Evella Airport"},{"ICAO":"YLHI","Latitude":-31.5382995605,"Longitude":159.07699585,"Name":"Lord Howe Island Airport"},{"ICAO":"YLHR","Latitude":-12.7869,"Longitude":143.304993,"Name":"Lockhart River Airport"},{"ICAO":"YLIS","Latitude":-28.8302993774,"Longitude":153.259994507,"Name":"Lismore Airport"},{"ICAO":"YLRD","Latitude":-29.45669937133789,"Longitude":147.98399353027344,"Name":"Lightning Ridge Airport"},{"ICAO":"YLRE","Latitude":-23.4342002869,"Longitude":144.279998779,"Name":"Longreach Airport"},{"ICAO":"YLST","Latitude":-27.843299865722656,"Longitude":120.7030029296875,"Name":"Leinster Airport"},{"ICAO":"YLTN","Latitude":-28.61359977722168,"Longitude":122.42400360107422,"Name":"Laverton Airport"},{"ICAO":"YMAA","Latitude":-9.949999809265137,"Longitude":142.18299865722656,"Name":"Mabuiag Island Airport"},{"ICAO":"YMEK","Latitude":-26.6117000579834,"Longitude":118.5479965209961,"Name":"Meekatharra Airport"},{"ICAO":"YMER","Latitude":-36.9085998535,"Longitude":149.901000977,"Name":"Merimbula Airport"},{"ICAO":"YMGB","Latitude":-12.0944004059,"Longitude":134.893997192,"Name":"Milingimbi Airport"},{"ICAO":"YMGD","Latitude":-12.0560998917,"Longitude":134.23399353,"Name":"Maningrida Airport"},{"ICAO":"YMHU","Latitude":-16.4424991608,"Longitude":136.083999634,"Name":"McArthur River Mine Airport"},{"ICAO":"YMIA","Latitude":-34.229198455799995,"Longitude":142.085998535,"Name":"Mildura Airport"},{"ICAO":"YMOG","Latitude":-28.116100311279297,"Longitude":117.84200286865234,"Name":"Mount Magnet Airport"},{"ICAO":"YMOR","Latitude":-29.498899459799997,"Longitude":149.845001221,"Name":"Moree Airport"},{"ICAO":"YMRB","Latitude":-22.057800293,"Longitude":148.07699585,"Name":"Moranbah Airport"},{"ICAO":"YMRY","Latitude":-35.8978004456,"Longitude":150.143997192,"Name":"Moruya Airport"},{"ICAO":"YMTG","Latitude":-37.745601654052734,"Longitude":140.78500366210938,"Name":"Mount Gambier Airport"},{"ICAO":"YMTI","Latitude":-16.662500381469727,"Longitude":139.17799377441406,"Name":"Mornington Island Airport"},{"ICAO":"YMUI","Latitude":-9.91666984558,"Longitude":144.054992676,"Name":"Murray Island Airport"},{"ICAO":"YMYB","Latitude":-25.5132999420166,"Longitude":152.71499633789062,"Name":"Maryborough Airport"},{"ICAO":"YNAR","Latitude":-34.7022018433,"Longitude":146.511993408,"Name":"Narrandera Airport"},{"ICAO":"YNBR","Latitude":-30.3192005157,"Longitude":149.82699585,"Name":"Narrabri Airport"},{"ICAO":"YNTN","Latitude":-17.68409,"Longitude":141.069664,"Name":"Normanton Airport"},{"ICAO":"YNWN","Latitude":-23.417800903299998,"Longitude":119.803001404,"Name":"Newman Airport"},{"ICAO":"YOLD","Latitude":-30.485000610399997,"Longitude":136.876998901,"Name":"Olympic Dam Airport"},{"ICAO":"YPAG","Latitude":-32.506900787353516,"Longitude":137.7169952392578,"Name":"Port Augusta Airport"},{"ICAO":"YPAM","Latitude":-18.755300521850586,"Longitude":146.58099365234375,"Name":"Palm Island Airport"},{"ICAO":"YPBO","Latitude":-23.1711006165,"Longitude":117.745002747,"Name":"Paraburdoo Airport"},{"ICAO":"YPGV","Latitude":-12.269399642899998,"Longitude":136.817993164,"Name":"Gove Airport"},{"ICAO":"YPKS","Latitude":-33.131401062,"Longitude":148.238998413,"Name":"Parkes Airport"},{"ICAO":"YPLC","Latitude":-34.6053009033,"Longitude":135.880004883,"Name":"Port Lincoln Airport"},{"ICAO":"YPMP","Latitude":-14.896451,"Longitude":141.60908,"Name":"Pormpuraaw Airport"},{"ICAO":"YPMQ","Latitude":-31.4358005524,"Longitude":152.863006592,"Name":"Port Macquarie Airport"},{"ICAO":"YPOD","Latitude":-38.31809997558594,"Longitude":141.4709930419922,"Name":"Portland Airport"},{"ICAO":"YQLP","Latitude":-26.612199783325195,"Longitude":144.2530059814453,"Name":"Quilpie Airport"},{"ICAO":"YRNG","Latitude":-12.356399536132812,"Longitude":134.8979949951172,"Name":"Ramingining Airport"},{"ICAO":"YROM","Latitude":-26.545000076300003,"Longitude":148.774993896,"Name":"Roma Airport"},{"ICAO":"YSGE","Latitude":-28.049699783325195,"Longitude":148.59500122070312,"Name":"St George Airport"},{"ICAO":"YSHK","Latitude":-25.8938999176,"Longitude":113.577003479,"Name":"Shark Bay Airport"},{"ICAO":"YSII","Latitude":-9.378330230710002,"Longitude":142.625,"Name":"Saibai Island Airport"},{"ICAO":"YSRN","Latitude":-42.154998779296875,"Longitude":145.29200744628906,"Name":"Strahan Airport"},{"ICAO":"YTGM","Latitude":-27.986400604248047,"Longitude":143.81100463867188,"Name":"Thargomindah Airport"},{"ICAO":"YTNK","Latitude":-19.6343994140625,"Longitude":134.18299865722656,"Name":"Tennant Creek Airport"},{"ICAO":"YVRD","Latitude":-16.402124404907227,"Longitude":131.00497436523438,"Name":"Victoria River Downs Airport"},{"ICAO":"YWBS","Latitude":-10.20829963684082,"Longitude":142.8249969482422,"Name":"Warraber Island Airport"},{"ICAO":"YWDH","Latitude":-25.41309928894043,"Longitude":142.66700744628906,"Name":"Windorah Airport"},{"ICAO":"YWHA","Latitude":-33.05889892578125,"Longitude":137.51400756835938,"Name":"Whyalla Airport"},{"ICAO":"YWLU","Latitude":-26.629199981689453,"Longitude":120.22100067138672,"Name":"Wiluna Airport"},{"ICAO":"YWOL","Latitude":-34.561100006103516,"Longitude":150.78900146484375,"Name":"Wollongong Airport"},{"ICAO":"YWTN","Latitude":-22.36359977722168,"Longitude":143.08599853515625,"Name":"Winton Airport"},{"ICAO":"YWYY","Latitude":-40.9989013671875,"Longitude":145.7310028076172,"Name":"Wynyard Airport"},{"ICAO":"YYKI","Latitude":-9.752801,"Longitude":143.405673,"Name":"Yorke Island Airport"},{"ICAO":"YYMI","Latitude":-9.90110969543457,"Longitude":142.7760009765625,"Name":"Yam Island Airport"},{"ICAO":"YMNE","Latitude":-27.286399841308594,"Longitude":120.55500030517578,"Name":"Mount Keith Airport"},{"ICAO":"YGFN","Latitude":-29.7593994140625,"Longitude":153.02999877929688,"Name":"Grafton Airport"},{"ICAO":"YORG","Latitude":-33.3816986084,"Longitude":149.132995605,"Name":"Orange Airport"},{"ICAO":"YTRE","Latitude":-31.8885993958,"Longitude":152.514007568,"Name":"Taree Airport"},{"ICAO":"YGLB","Latitude":-34.810298919677734,"Longitude":149.7259979248047,"Name":"Goulburn Airport"},{"ICAO":"YCNK","Latitude":-32.787498,"Longitude":151.341995,"Name":"Cessnock Airport"},{"ICAO":"YSCO","Latitude":-32.037200927734375,"Longitude":150.83200073242188,"Name":"Scone Airport"},{"ICAO":"YMDG","Latitude":-32.5625,"Longitude":149.610992432,"Name":"Mudgee Airport"},{"ICAO":"YMND","Latitude":-32.703300476100004,"Longitude":151.488006592,"Name":"Maitland Airport"},{"ICAO":"KOKB","Latitude":33.217300415039,"Longitude":-117.35399627686,"Name":"Oceanside Municipal Airport"},{"ICAO":"YBUU","Latitude":-17.545299530029297,"Longitude":128.3070068359375,"Name":"Bungle Bungle Airport"},{"ICAO":"YWHI","Latitude":-20.27611,"Longitude":148.755,"Name":"Whitsunday Island Airport"},{"ICAO":"YAMB","Latitude":-27.6406,"Longitude":152.712006,"Name":"RAAF Base Amberley"},{"ICAO":"YPTN","Latitude":-14.521100044250488,"Longitude":132.3780059814453,"Name":"Tindal Airport"},{"ICAO":"YLVT","Latitude":-37.86360168457031,"Longitude":144.74600219726562,"Name":"RAAF Williams, Laverton Base"},{"ICAO":"YSNW","Latitude":-34.94889831542969,"Longitude":150.53700256347656,"Name":"Nowra Airport"},{"ICAO":"YPEA","Latitude":-31.667800903320312,"Longitude":116.01499938964844,"Name":"RAAF Base Pearce"},{"ICAO":"YBDG","Latitude":-36.7393989563,"Longitude":144.330001831,"Name":"Bendigo Airport"},{"ICAO":"YTWB","Latitude":-27.542800903320312,"Longitude":151.91600036621094,"Name":"Toowoomba Airport"},{"ICAO":"YLLE","Latitude":-27.405633,"Longitude":141.809458,"Name":"Ballera Airport"},{"ICAO":"YGAT","Latitude":-27.5604060653,"Longitude":152.340459824,"Name":"Gatton Campus Airport"},{"ICAO":"YBWX","Latitude":-20.86440086364746,"Longitude":115.40599822998047,"Name":"Barrow Island Airport"},{"ICAO":"YDBY","Latitude":-17.3700008392334,"Longitude":123.66100311279297,"Name":"Derby Airport"},{"ICAO":"YWLG","Latitude":-30.032800674438477,"Longitude":148.12600708007812,"Name":"Walgett Airport"},{"ICAO":"YBTI","Latitude":-11.769200325012207,"Longitude":130.6199951171875,"Name":"Bathurst Island Airport"},{"ICAO":"YDKI","Latitude":-17.9416999817,"Longitude":146.13999939,"Name":"Dunk Island Airport"},{"ICAO":"YLZI","Latitude":-14.673273,"Longitude":145.454571,"Name":"Lizard Island Airport"},{"ICAO":"YHML","Latitude":-37.64889907836914,"Longitude":142.06500244140625,"Name":"Hamilton Airport"},{"ICAO":"YHLC","Latitude":-18.23390007019043,"Longitude":127.66999816894531,"Name":"Halls Creek Airport"},{"ICAO":"YFTZ","Latitude":-18.181900024414062,"Longitude":125.55899810791016,"Name":"Fitzroy Crossing Airport"},{"ICAO":"YNRV","Latitude":-33.7971992493,"Longitude":120.208000183,"Name":"Ravensthorpe Airport"},{"ICAO":"YGLG","Latitude":-38.224998474121094,"Longitude":144.33299255371094,"Name":"Geelong Airport"},{"ICAO":"YPSH","Latitude":-35.7558462874,"Longitude":137.962875366,"Name":"Penneshaw Airport"},{"ICAO":"YRED","Latitude":-27.20669937133789,"Longitude":153.0679931640625,"Name":"Redcliffe Airport"},{"ICAO":"YPID","Latitude":-38.52330017089844,"Longitude":145.32699584960938,"Name":"Phillip Island Airport"},{"ICAO":"YCOO","Latitude":-12.903300285339355,"Longitude":132.53199768066406,"Name":"Cooinda Airport"},{"ICAO":"YJAB","Latitude":-12.658300399780273,"Longitude":132.89300537109375,"Name":"Jabiru Airport"},{"ICAO":"YTEF","Latitude":-21.71500015258789,"Longitude":122.22899627685547,"Name":"Telfer Airport"},{"ICAO":"YREN","Latitude":-34.1963996887207,"Longitude":140.6739959716797,"Name":"Renmark Airport"},{"ICAO":"YLEC","Latitude":-30.59830093383789,"Longitude":138.42599487304688,"Name":"Leigh Creek Airport"},{"ICAO":"YWBR","Latitude":-26.128299713134766,"Longitude":126.58300018310547,"Name":"Warburton Airport"},{"ICAO":"YCUN","Latitude":-31.62220001220703,"Longitude":117.21700286865234,"Name":"Cunderdin Airport"},{"ICAO":"YRTI","Latitude":-32.00669860839844,"Longitude":115.54000091552734,"Name":"Rottnest Island Airport"},{"ICAO":"YFRT","Latitude":-30.83810043334961,"Longitude":128.11500549316406,"Name":"Forrest Airport"},{"ICAO":"YBLT","Latitude":-37.51169967651367,"Longitude":143.79100036621094,"Name":"Ballarat Airport"},{"ICAO":"YMCO","Latitude":-37.59830093383789,"Longitude":149.72000122070312,"Name":"Mallacoota Airport"},{"ICAO":"YYND","Latitude":-22.254199981689453,"Longitude":131.78199768066406,"Name":"Yuendumu Airport"},{"ICAO":"YYRM","Latitude":-38.56669998168945,"Longitude":146.7550048828125,"Name":"Yarram Airport"},{"ICAO":"YYTA","Latitude":-31.470600128173828,"Longitude":131.8249969482422,"Name":"Yalata Mission Airport"},{"ICAO":"YWYM","Latitude":-15.51140022277832,"Longitude":128.1529998779297,"Name":"Wyndham Airport"},{"ICAO":"YBEE","Latitude":-30.18670082092285,"Longitude":139.55799865722656,"Name":"Beverley Airport"},{"ICAO":"YXCM","Latitude":-36.242155,"Longitude":149.130147,"Name":"Cooma Hospital Helipad"},{"ICAO":"YGKL","Latitude":-23.1833000183,"Longitude":150.942001343,"Name":"Great Keppel Is Airport"},{"ICAO":"YRRB","Latitude":-14.734814,"Longitude":134.525485,"Name":"Roper Bar Airport"},{"ICAO":"YMRT","Latitude":-17.700000762939453,"Longitude":145.14999389648438,"Name":"Mount Garnet Airport"},{"ICAO":"YIFL","Latitude":-17.55940055847168,"Longitude":146.01199340820312,"Name":"Innisfail Airport"},{"ICAO":"YOOM","Latitude":-28.09939956665039,"Longitude":140.19700622558594,"Name":"Moomba Airport"},{"ICAO":"YOLW","Latitude":-21.668300628662,"Longitude":115.1129989624,"Name":"Onslow Airport"},{"ICAO":"YTDR","Latitude":-24.99329948425293,"Longitude":150.09300231933594,"Name":"Theodore Airport"},{"ICAO":"YCCA","Latitude":-26.774999618530273,"Longitude":150.61700439453125,"Name":"Chinchilla Airport"},{"ICAO":"YSHR","Latitude":-20.277221,"Longitude":148.755556,"Name":"Shute Harbour Airport"},{"ICAO":"YSHT","Latitude":-36.42890167236328,"Longitude":145.39300537109375,"Name":"Shepparton Airport"},{"ICAO":"YTEM","Latitude":-34.4213981628418,"Longitude":147.51199340820312,"Name":"Temora Airport"},{"ICAO":"YGAY","Latitude":-25.61440086364746,"Longitude":151.61900329589844,"Name":"Gayndah Airport"},{"ICAO":"YWCA","Latitude":-31.526399612426758,"Longitude":143.375,"Name":"Wilcannia Airport"},{"ICAO":"YIVO","Latitude":-32.88330078125,"Longitude":144.30999755859375,"Name":"Ivanhoe Airport"},{"ICAO":"YMED","Latitude":-32.36669921875,"Longitude":142.40499877929688,"Name":"Menindee Airport"},{"ICAO":"YPCE","Latitude":-33.36669921875,"Longitude":142.58799743652344,"Name":"Pooncarie Airport"},{"ICAO":"YTLP","Latitude":-30.933300018310547,"Longitude":144.41700744628906,"Name":"Tilpa Airport"},{"ICAO":"YPEC","Latitude":-33.0667,"Longitude":151.647995,"Name":"Lake Macquarie Airport"},{"ICAO":"YBPI","Latitude":-20.803300857543945,"Longitude":149.27000427246094,"Name":"Brampton Island Airport"},{"ICAO":"YBLN","Latitude":-33.6884231567,"Longitude":115.401596069,"Name":"Busselton Regional Airport"},{"ICAO":"YIVL","Latitude":-29.888299942,"Longitude":151.143997192,"Name":"Inverell Airport"},{"ICAO":"YGLI","Latitude":-29.674999237060547,"Longitude":151.68899536132812,"Name":"Glen Innes Airport"},{"ICAO":"YFDF","Latitude":-22.290754,"Longitude":119.437143,"Name":"Fortescue - Dave Forrest Aerodrome"},{"ICAO":"YCBB","Latitude":-31.332500457763672,"Longitude":149.26699829101562,"Name":"Coonabarabran Airport"},{"ICAO":"YWVA","Latitude":-33.240278,"Longitude":151.429722,"Name":"Warnervale Airport"},{"ICAO":"YBNS","Latitude":-37.88750076293945,"Longitude":147.5679931640625,"Name":"Bairnsdale Airport"},{"ICAO":"YPMH","Latitude":-29.716,"Longitude":135.5244,"Name":"Prominent Hill Airport"},{"ICAO":"YCWR","Latitude":-33.84469985961914,"Longitude":148.6490020751953,"Name":"Cowra Airport"},{"ICAO":"YCOY","Latitude":-23.1299991607666,"Longitude":113.7770004272461,"Name":"Coral Bay Airport"},{"ICAO":"YLIL","Latitude":-37.69169998168945,"Longitude":145.36700439453125,"Name":"Lilydale Airport"},{"ICAO":"YBWW","Latitude":-27.558333,"Longitude":151.793333,"Name":"Brisbane West Wellcamp Airport"},{"ICAO":"YCMT","Latitude":-22.773099899291992,"Longitude":147.62100219726562,"Name":"Clermont Airport"},{"ICAO":"YWBL","Latitude":-38.2952995300293,"Longitude":142.44700622558594,"Name":"Warrnambool Airport"},{"ICAO":"YRMD","Latitude":-20.701900482177734,"Longitude":143.11500549316406,"Name":"Richmond Airport"},{"ICAO":"YCIN","Latitude":-17.5813999176,"Longitude":123.82800293,"Name":"RAAF Base Curtin"},{"ICAO":"YBUN","Latitude":-33.378299713134766,"Longitude":115.677001953125,"Name":"Bunbury Airport"},{"ICAO":"YATN","Latitude":-17.2616996765,"Longitude":145.51499939,"Name":"Atherton Airport"},{"ICAO":"YKDI","Latitude":-33.97669982910156,"Longitude":137.66000366210938,"Name":"Kadina Airport"},{"ICAO":"YCWA","Latitude":-22.96669960022,"Longitude":118.81300354004,"Name":"Coondewanna Airport"},{"ICAO":"YBRL","Latitude":-16.075300216674805,"Longitude":136.302001953125,"Name":"Borroloola Airport"},{"ICAO":"YPKT","Latitude":-14.25,"Longitude":129.5290069580078,"Name":"Port Keats Airport"},{"ICAO":"YGPT","Latitude":-11.40250015258789,"Longitude":130.4219970703125,"Name":"Garden Point Airport"},{"ICAO":"YFLS","Latitude":-33.730989,"Longitude":134.501,"Name":"Flinders Island Airport"},{"ICAO":"YMBD","Latitude":-35.06669998168945,"Longitude":139.2270050048828,"Name":"Murray Bridge Airport"},{"ICAO":"YHSM","Latitude":-36.669700622558594,"Longitude":142.17300415039062,"Name":"Horsham Airport"},{"ICAO":"YSWH","Latitude":-35.37580108642578,"Longitude":143.5330047607422,"Name":"Swan Hill Airport"},{"ICAO":"YDLK","Latitude":-29.0132999420166,"Longitude":138.4810028076172,"Name":"Dulkaninna Airport"},{"ICAO":"YWMC","Latitude":-28.906700134277344,"Longitude":136.3419952392578,"Name":"William Creek Airport"},{"ICAO":"YTAM","Latitude":-25.801700592041016,"Longitude":149.89999389648438,"Name":"Taroom Airport"},{"ICAO":"YAPH","Latitude":-23.646099,"Longitude":146.584,"Name":"Alpha Airport"},{"ICAO":"YARA","Latitude":-37.30939865112305,"Longitude":142.98899841308594,"Name":"Ararat Airport"},{"ICAO":"YBLA","Latitude":-36.55189895629883,"Longitude":146.0070037841797,"Name":"Benalla Airport"},{"ICAO":"YBRN","Latitude":-34.623600006103516,"Longitude":143.5780029296875,"Name":"Balranald Airport"},{"ICAO":"YBRW","Latitude":-29.973899841308594,"Longitude":146.81700134277344,"Name":"Brewarrina Airport"},{"ICAO":"YCEE","Latitude":-33.70970153808594,"Longitude":136.5050048828125,"Name":"Cleve Airport"},{"ICAO":"YCOR","Latitude":-35.99470138549805,"Longitude":146.35699462890625,"Name":"Corowa Airport"},{"ICAO":"YCRG","Latitude":-36.18280029296875,"Longitude":147.88800048828125,"Name":"Corryong Airport"},{"ICAO":"YCTM","Latitude":-34.6239013671875,"Longitude":148.0279998779297,"Name":"Cootamundra Airport"},{"ICAO":"YDBI","Latitude":-28.591699600219727,"Longitude":148.2169952392578,"Name":"Dirranbandi Airport"},{"ICAO":"YDLQ","Latitude":-35.5593986511,"Longitude":144.945999146,"Name":"Deniliquin Airport"},{"ICAO":"YDYS","Latitude":-22.62220001220703,"Longitude":148.36399841308594,"Name":"Dysart Airport"},{"ICAO":"YECH","Latitude":-36.15719985961914,"Longitude":144.76199340820312,"Name":"Echuca Airport"},{"ICAO":"YFBS","Latitude":-33.363602,"Longitude":147.934998,"Name":"Forbes Airport"},{"ICAO":"YGDH","Latitude":-30.96109962463379,"Longitude":150.25100708007812,"Name":"Gunnedah Airport"},{"ICAO":"YHAY","Latitude":-34.53139877319336,"Longitude":144.8300018310547,"Name":"Hay Airport"},{"ICAO":"YHPN","Latitude":-35.715301513671875,"Longitude":142.36000061035156,"Name":"Hopetoun Airport"},{"ICAO":"YKER","Latitude":-35.751399993896484,"Longitude":143.93899536132812,"Name":"Kerang Airport"},{"ICAO":"YKMP","Latitude":-31.074399948120117,"Longitude":152.77000427246094,"Name":"Kempsey Airport"},{"ICAO":"YKRY","Latitude":-26.580799102783203,"Longitude":151.84100341796875,"Name":"Kingaroy Airport"},{"ICAO":"YLTV","Latitude":-38.207199,"Longitude":146.470001,"Name":"Latrobe Valley Airport"},{"ICAO":"YMBA","Latitude":-17.06920051574707,"Longitude":145.41900634765625,"Name":"Mareeba Airport"},{"ICAO":"YNGU","Latitude":-14.722800254821777,"Longitude":134.7469940185547,"Name":"Ngukurr Airport"},{"ICAO":"YNRM","Latitude":-32.214698791503906,"Longitude":148.22500610351562,"Name":"Narromine Airport"},{"ICAO":"YPIR","Latitude":-33.23889923095703,"Longitude":137.9949951171875,"Name":"Port Pirie Airport"},{"ICAO":"YSMI","Latitude":-40.834999084472656,"Longitude":145.08399963378906,"Name":"Smithton Airport"},{"ICAO":"YSNB","Latitude":-11.422800064086914,"Longitude":130.6540069580078,"Name":"Snake Bay Airport"},{"ICAO":"YSWL","Latitude":-37.07170104980469,"Longitude":142.74099731445312,"Name":"Stawell Airport"},{"ICAO":"YTIB","Latitude":-29.451099395751953,"Longitude":142.05799865722656,"Name":"Tibooburra Airport"},{"ICAO":"YTMU","Latitude":-35.26279830932617,"Longitude":148.24099731445312,"Name":"Tumut Airport"},{"ICAO":"YWGT","Latitude":-36.41579818725586,"Longitude":146.3070068359375,"Name":"Wangaratta Airport"},{"ICAO":"YWKB","Latitude":-36.32109832763672,"Longitude":142.41900634765625,"Name":"Warracknabeal Airport"},{"ICAO":"YWRN","Latitude":-31.733299255371094,"Longitude":147.80299377441406,"Name":"Warren Airport"},{"ICAO":"YWSL","Latitude":-38.090827,"Longitude":146.965335,"Name":"West Sale Airport"},{"ICAO":"YWWL","Latitude":-33.9371986389,"Longitude":147.190994263,"Name":"West Wyalong Airport"},{"ICAO":"YYNG","Latitude":-34.25559997558594,"Longitude":148.2480010986328,"Name":"Young Airport"}]
